[
    {
        "id": "2-CYTJJX2HGFA3PE",
        "name": "Ate Rica's Bacsilog - Shopper's Mart [Available for LONG-DISTANCE DELIVERY]",
        "latitude": 14.600689,
        "longitude": 120.975685
    },
    {
        "id": "2-C3MYFETFRZAAVE",
        "name": "Coffee Army - Sampaloc [Available for LONG-DISTANCE DELIVERY]",
        "latitude": 14.60594708,
        "longitude": 120.9912717
    },
    {
        "id": "2-C3LHKB3JE7XJNX",
        "name": "Kowloon House - Quiapo [Available for LONG-DISTANCE DELIVERY]",
        "latitude": 14.59984597,
        "longitude": 120.9845705
    },
    {
        "id": "2-C22JWEMHC8CALX",
        "name": "Ling Nam - Alonzo [Available for LONG DISTANCE DELIVERY]",
        "latitude": 14.6022232,
        "longitude": 120.9785885
    },
    {
        "id": "PHGFSTI000001p9",
        "name": "Mr. Ube Rice and Noodle Haus - Ongpin Street [Available for LONG-DISTANCE DELIVERY]",
        "latitude": 14.600840155867786,
        "longitude": 120.97590531485673
    },
    {
        "id": "2-CZMACCEBJGDGCX",
        "name": "Goldilocks - Isetann Recto Bakeshop",
        "latitude": 14.6026551,
        "longitude": 120.98473408
    },
    {
        "id": "2-CYMABFMXBF43CN",
        "name": "King Sisig - Isetann Recto [Available for LONG-DISTANCE DELIVERY]",
        "latitude": 14.603071641666666,
        "longitude": 120.98418
    },
    {
        "id": "2-CY2FBBU1R3KFLX",
        "name": "Sincerity Cafe & Restaurant - Binondo [Available for LONG-DISTANCE DELIVERY]",
        "latitude": 14.599068014727354,
        "longitude": 120.975219818386
    },
    {
        "id": "2-C3V1GNVYTYTTLN",
        "name": "Gang Gang Chicken - Padre Campa [Available for LONG-DISTANCE DELIVERY]",
        "latitude": 14.6077005,
        "longitude": 120.9864182
    },
    {
        "id": "2-CY22C6CCSADZG2",
        "name": "Black Scoop Cafe - Legarda [Available for LONG-DISTANCE DELIVERY]",
        "latitude": 14.6000499,
        "longitude": 120.9906598
    },
    {
        "id": "2-CYTJJB21TEM3BA",
        "name": "Yi Fang Taiwan Fruit Tea 一芳台灣水果茶 - Binondo [Available for LONG-DISTANCE DELIVERY]",
        "latitude": 14.598788,
        "longitude": 120.975457
    },
    {
        "id": "2-C2BANAUWAGNVEN",
        "name": "Toribox - Tower Manila",
        "latitude": 14.607301,
        "longitude": 120.988807
    },
    {
        "id": "2-C2UGAEDFJYCDFA",
        "name": "Pancit Ng Taga Malabon - Quiapo [Available for LONG-DISTANCE DELIVERY]",
        "latitude": 14.5975467,
        "longitude": 120.9837582
    },
    {
        "id": "2-CZNTDF6TMAE2CJ",
        "name": "Supreme Wings - Sampaloc [Available for LONG-DISTANCE DELIVERY]",
        "latitude": 14.6007482,
        "longitude": 120.9912594
    },
    {
        "id": "2-CZAHEABBVN3JRE",
        "name": "Tim Hortons - CEU",
        "latitude": 14.599783433333334,
        "longitude": 120.9915111
    },
    {
        "id": "2-CYXGAAETCFLVNX",
        "name": "Shawarma Shack - Isetann Recto",
        "latitude": 14.602945795236323,
        "longitude": 120.9840936441795
    },
    {
        "id": "2-CYTKGTWXLBXUVA",
        "name": "Oh My Chicken! - Youniversity Suites",
        "latitude": 14.600999484615384,
        "longitude": 120.99033345000001
    },
    {
        "id": "2-C2NZNPLTLPJDDE",
        "name": "Quickly - Shoppers Mart [Available for LONG-DISTANCE DELIVERY]",
        "latitude": 14.6005857,
        "longitude": 120.97566
    },
    {
        "id": "2-CZKULF3FEKKFBE",
        "name": "Hai Pio Pares + Bbq - Carriedo",
        "latitude": 14.598816,
        "longitude": 120.982012
    },
    {
        "id": "2-C2WBJPWDVBJJHE",
        "name": "Lord Stow's Bakery - Ongpin [Available for LONG-DISTANCE DELIVERY]",
        "latitude": 14.601146882181197,
        "longitude": 120.97581781349015
    },
    {
        "id": "2-C2LKETB1KADEV2",
        "name": "Sharetea - Ongpin",
        "latitude": 14.600090703165407,
        "longitude": 120.97508170221225
    },
    {
        "id": "PHGFSTI000001cl",
        "name": "Golden Fortune Seafood Restaurant - Binondo [Available for LONG-DISTANCE DELIVERY]",
        "latitude": 14.603557,
        "longitude": 120.97757
    },
    {
        "id": "2-CZNTDBLDT8DJRA",
        "name": "Sausage Supreme - Sampaloc [Available for LONG-DISTANCE DELIVERY]",
        "latitude": 14.6008,
        "longitude": 120.991116
    },
    {
        "id": "2-C3KHLT4GT4CVDE",
        "name": "Master Siomai, Siopao & Leche Flan - Sampaloc Manila",
        "latitude": 14.59888,
        "longitude": 120.98153
    },
    {
        "id": "2-C2WJJCA3G3ATNT",
        "name": "Go Bento - Legarda [Available for LONG-DISTANCE DELIVERY]",
        "latitude": 14.599924,
        "longitude": 120.990554
    },
    {
        "id": "2-C2U2EXCFHGJATA",
        "name": "Cafe De Soledad - Gastambide St.",
        "latitude": 14.6019746,
        "longitude": 120.9906221
    },
    {
        "id": "2-C2LGNT4HGCCBEN",
        "name": "The Aristocrat Restaurant - SM Manila [Available for LONG-DISTANCE DELIVERY]",
        "latitude": 14.59033764,
        "longitude": 120.9837502
    },
    {
        "id": "2-C2KTENU2GVJXBE",
        "name": "Yo! Madi Yogurt Shake - Binondo Manila",
        "latitude": 14.600276,
        "longitude": 120.975791
    },
    {
        "id": "2-C343BEWDRGDXAE",
        "name": "Basta Inihaw - Recto [Available for LONG-DISTANCE DELIVERY]",
        "latitude": 14.602205,
        "longitude": 120.987386
    },
    {
        "id": "2-CZAYN2CKKAJTGJ",
        "name": "Dakasi Milktea - Hotstar Recto [Available for LONG-DISTANCE DELIVERY]",
        "latitude": 14.600982475,
        "longitude": 120.9899579
    },
    {
        "id": "2-CYMAEFJXNUX1SE",
        "name": "Bulalo World - Isetann Recto [Available for LONG-DISTANCE DELIVERY]",
        "latitude": 14.60283715,
        "longitude": 120.9843469
    },
    {
        "id": "2-C3JTJRJJNAL1VJ",
        "name": "The Thai Plate - Fugoso Street [Available for LONG-DISTANCE DELIVERY]",
        "latitude": 14.60788036,
        "longitude": 120.9819664
    },
    {
        "id": "2-C2BFLTLFEU21GE",
        "name": "Caramia Cakes & Gelato - SM San Lazaro [Available for LONG-DISTANCE DELIVERY]",
        "latitude": 14.6186689,
        "longitude": 120.98527427999998
    },
    {
        "id": "PHGFSTI0000017g",
        "name": "Goldilocks - Masangkay Bakeshop",
        "latitude": 14.609274206309763,
        "longitude": 120.97935352393034
    },
    {
        "id": "2-CY3CGYMHELJWNX",
        "name": "Pizza Hut - SM San Lazaro",
        "latitude": 14.6187372,
        "longitude": 120.98525154705882
    },
    {
        "id": "2-CY4TE3CUL6BXT2",
        "name": "Auntie Anne's - SM San Lazaro [Available for LONG-DISTANCE DELIVERY]",
        "latitude": 14.618619966666667,
        "longitude": 120.98520841076922
    },
    {
        "id": "PHGFSTI00000126",
        "name": "Jatujak Thai Restaurant - SM San Lazaro",
        "latitude": 14.61758356,
        "longitude": 120.9862531
    },
    {
        "id": "PHGFSTI0000017u",
        "name": "Sbarro - SM San Lazaro [Available for LONG-DISTANCE DELIVERY]",
        "latitude": 14.617926,
        "longitude": 120.985685
    },
    {
        "id": "2-CZBKL4AFA4KHJN",
        "name": "Black Scoop Cafe - UST Dapitan-Navarra [Available for LONG-DISTANCE DELIVERY]",
        "latitude": 14.61125345,
        "longitude": 120.98708627857143
    },
    {
        "id": "2-CZADLTTJTJ4UJN",
        "name": "Jeddy's Luncheonette - Felix Huertas [Available for LONG-DISTANCE DELIVERY]",
        "latitude": 14.6149069,
        "longitude": 120.9846
    },
    {
        "id": "PHGFSTI00000180",
        "name": "Reyes Barbecue - UST [Available for LONG-DISTANCE DELIVERY",
        "latitude": 14.6103974,
        "longitude": 120.99011833333334
    },
    {
        "id": "2-C3CZMECJFCBDN6",
        "name": "Bistro Noval - Dapitan Street [Available for LONG-DISTANCE DELIVERY]",
        "latitude": 14.609816,
        "longitude": 120.986337
    },
    {
        "id": "2-C3NTVGCGE3LHR6",
        "name": "ArmyNavy Brands - Mix and Match (UST) [Available for LONG-DISTANCE DELIVERY]",
        "latitude": 14.6115019,
        "longitude": 120.9880575
    },
    {
        "id": "2-C2BXEAW3LN4HGE",
        "name": "Savory Chicken PH - Masangkay",
        "latitude": 14.610134884297521,
        "longitude": 120.9797647
    },
    {
        "id": "2-C3N3GT4KFFCZR6",
        "name": "Tomo Coffee - Sta. Cruz [Available for LONG-DISTANCE DELIVERY]",
        "latitude": 14.61218504,
        "longitude": 120.9814146
    },
    {
        "id": "2-C2LHPF4FGTMHL6",
        "name": "The Aristocrat Restaurant - SM San Lazaro [Available for LONG-DISTANCE DELIVERY]",
        "latitude": 14.61863016,
        "longitude": 120.9852916
    },
    {
        "id": "2-CZCUJA2GNTWTTJ",
        "name": "Tastes from the Greens - UST [Available for LONG-DISTANCE DELIVERY]",
        "latitude": 14.612146549999999,
        "longitude": 120.9883315
    },
    {
        "id": "2-C2MFTADHVJXEGE",
        "name": "Quickly - SM City San Lazaro [Available for LONG-DISTANCE DELIVERY]",
        "latitude": 14.617787506662822,
        "longitude": 120.98541812545443
    },
    {
        "id": "2-C3LGLRMDRNDKFA",
        "name": "Starr's Famous Shake  - Dapitan Pacific Icon 2",
        "latitude": 14.61175581,
        "longitude": 120.9882921
    },
    {
        "id": "2-CZNFTCBYL4A2KA",
        "name": "Rice Rocket - UST [Available for LONG-DISTANCE DELIVERY]",
        "latitude": 14.611486666666668,
        "longitude": 120.9880634
    },
    {
        "id": "2-CY6YVVJJR8NXFE",
        "name": "Rarjap Sushi House - V. Concepcion Street [Available for LONG-DISTANCE DELIVERY]",
        "latitude": 14.6122898,
        "longitude": 120.9881811
    },
    {
        "id": "2-C2XVRNVBUBBGGT",
        "name": "Brownies Unlimited - SM Lazaro [Available for LONG-DISTANCE DELIVERY]",
        "latitude": 14.618498,
        "longitude": 120.9851923
    },
    {
        "id": "2-CZLBVNX3RFWHFE",
        "name": "Chachago - Masangkay Street [Available for LONG-DISTANCE DELIVERY]",
        "latitude": 14.608712000000002,
        "longitude": 120.97882803333333
    },
    {
        "id": "2-C3L3METXJNCDEN",
        "name": "Dunkin' - Tayuman",
        "latitude": 14.61671091,
        "longitude": 120.9828209
    },
    {
        "id": "2-C3W3TUNAJ2TFCX",
        "name": "Ramen Nagi - SM San Lazaro",
        "latitude": 14.61869686,
        "longitude": 120.9853232
    },
    {
        "id": "2-C3AAL7DFCJCGEN",
        "name": "Everything But Cheese - SM San Lazaro [Available for LONG-DISTANCE DELIVERY]",
        "latitude": 14.6187372,
        "longitude": 120.98525154705882
    },
    {
        "id": "2-C2XJG2AKCRDXR2",
        "name": "Ducup - Masangkay Manila [Available for LONG-DISTANCE DELIVERY]",
        "latitude": 14.60896804,
        "longitude": 120.9791012
    },
    {
        "id": "2-C3MET242LLKHWA",
        "name": "Tealive - SM San Lazaro [Available for LONG-DISTANCE DELIVERY]",
        "latitude": 14.61760156,
        "longitude": 120.9860331
    },
    {
        "id": "2-C26DHEBXLEAKN6",
        "name": "Koomi - Pacific Suites UST [Available for LONG-DISTANCE DELIVERY]",
        "latitude": 14.610518932115212,
        "longitude": 120.98696399388388
    },
    {
        "id": "2-CZJHLB6ZLXAAN2",
        "name": "Mann Hann - SM San Lazaro [Available for LONG-DISTANCE DELIVERY]",
        "latitude": 14.617811342857143,
        "longitude": 120.9858458375
    },
    {
        "id": "2-CZBWAGD2G8LVGN",
        "name": "Pizza Telefono - UST [Available for LONG-DISTANCE DELIVERY]",
        "latitude": 14.611726,
        "longitude": 120.98823114031062
    },
    {
        "id": "2-C2E1EPMWRKUKVX",
        "name": "Nine Fresh - SM City San Lazaro",
        "latitude": 14.618202,
        "longitude": 120.985461
    },
    {
        "id": "2-CYNVTTMHVECZTJ",
        "name": "Hap Chan - SM San Lazaro [Available for LONG-DISTANCE DELIVERY]",
        "latitude": 14.617643,
        "longitude": 120.9861
    },
    {
        "id": "2-C2XEUAE2NUKALX",
        "name": "Pan de Manila - Masangkay [Available for LONG-DISTANCE DELIVERY]",
        "latitude": 14.60910691,
        "longitude": 120.9791807
    },
    {
        "id": "PHGFSTI000004rd",
        "name": "Chachago - Scout Tobias [Available for LONG-DISTANCE DELIVERY]",
        "latitude": 14.632848333333333,
        "longitude": 121.0305526
    },
    {
        "id": "2-C2LWPECXEEDDRN",
        "name": "Dean and Deluca - Sct. Rallos [Available for LONG-DISTANCE DELIVERY]",
        "latitude": 14.6344783,
        "longitude": 121.0333255
    },
    {
        "id": "2-C2CCTEADEJBZLA",
        "name": "I Love Milktea - The Third Building",
        "latitude": 14.6297948,
        "longitude": 121.0188685
    },
    {
        "id": "2-C3KWVENAV7EUC6",
        "name": "Dylan Patisserie - Quezon City [Available for LONG-DISTANCE DELIVERY]",
        "latitude": 14.62969066,
        "longitude": 121.0320371
    },
    {
        "id": "2-C3KDGBCEJBJ1RT",
        "name": "Casa Mexicana - Quezon City",
        "latitude": 14.6304058,
        "longitude": 121.033098
    },
    {
        "id": "2-CZJKWGCEHCM1DA",
        "name": "Ihaw Balot Plaza - South Triangle [Available for LONG-DISTANCE DELIVERY]",
        "latitude": 14.6381032,
        "longitude": 121.031306
    },
    {
        "id": "2-CY6VEVAKRRKHVJ",
        "name": "Zark's Burgers - Fisher Mall [Available for LONG-DISTANCE DELIVERY]",
        "latitude": 14.633486333333334,
        "longitude": 121.01889469999999
    },
    {
        "id": "2-CZLKRVLXLGD1HA",
        "name": "Conti's Take Out Nook (Kiosk) - Fishermall QC [Available for LONG-DISTANCE DELIVERY]",
        "latitude": 14.633280214285714,
        "longitude": 121.01889896392821
    },
    {
        "id": "2-C2THC3KJE3BVHE",
        "name": "Ha Yuan the Kitchen - Brgy Laging Handa",
        "latitude": 14.63553499,
        "longitude": 121.0279458
    },
    {
        "id": "2-C2VVCF23ANWYVN",
        "name": "Baked by Mary Grace - Fishermall [Available for LONG-DISTANCE DELIVERY]",
        "latitude": 14.6333799,
        "longitude": 121.0191086
    },
    {
        "id": "PHGFSTI0000022l",
        "name": "Lydia's Lechon - Roces Avenue [Available for LONG-DISTANCE DELIVERY]",
        "latitude": 14.630594,
        "longitude": 121.02547
    },
    {
        "id": "PHGFSTI000001v2",
        "name": "RUB Ribs & BBQ - Don Roces [Available for LONG-DISTANCE DELIVERY]",
        "latitude": 14.6297006,
        "longitude": 121.0295115
    },
    {
        "id": "PHGFSTI000004mf",
        "name": "Goldilocks - Scout Borromeo Bakeshop",
        "latitude": 14.6390384,
        "longitude": 121.03108399999999
    },
    {
        "id": "2-CZADN26CTBC3KE",
        "name": "Pancit Ng Taga Malabon - Quezon Avenue [Available for LONG-DISTANCE DELIVERY]",
        "latitude": 14.6350858,
        "longitude": 121.02261185
    },
    {
        "id": "2-C26YTUUYVALATT",
        "name": "Pares Retiro - Fisher Mall",
        "latitude": 14.63377864,
        "longitude": 121.0193264
    },
    {
        "id": "2-C3U1LTKFFBKTE2",
        "name": "Crepe Talk Cafe - Scout Tobias Street Tomas Morato [Available for LONG-DISTANCE DELIVERY]",
        "latitude": 14.63228013,
        "longitude": 121.0302931
    },
    {
        "id": "2-CY6HE8EHRFDXVN",
        "name": "Greens - Scout Lozano [Available for LONG-DISTANCE DELIVERY]",
        "latitude": 14.62979504,
        "longitude": 121.0330303
    },
    {
        "id": "2-C2MDUBAZPGCJE2",
        "name": "Chicken Shack - South Triangle [Available for LONG-DISTANCE DELIVERY]",
        "latitude": 14.6391449,
        "longitude": 121.0309473
    },
    {
        "id": "2-C2TWFFJCG32EE2",
        "name": "Soy & Bean - Roosevelt Avenue",
        "latitude": 14.63382128,
        "longitude": 121.018015
    },
    {
        "id": "2-C3XEGYVAFAUTCE",
        "name": "Tapsilog Avenue - Sct. Chuatoco",
        "latitude": 14.62843943,
        "longitude": 121.0249774
    },
    {
        "id": "2-CYTJJNCEKEB1TA",
        "name": "RBX Rice in A Box - National Bookstore Commercial Complex",
        "latitude": 14.639177946628902,
        "longitude": 121.0310125
    },
    {
        "id": "2-C2BEV3D3MBNCLA",
        "name": "Supersam - Scout Tobias",
        "latitude": 14.6348512,
        "longitude": 121.0312994
    },
    {
        "id": "2-C35FERAWAAUXV2",
        "name": "Max's Group Delivers - Mix and Match (Pancake House Scout Tuazon)",
        "latitude": 14.62986746,
        "longitude": 121.0319122
    },
    {
        "id": "2-C32KATCZL7EZRE",
        "name": "De Original Jamaican Pattie - Fishermall Quezon Avenue",
        "latitude": 14.63334605,
        "longitude": 121.0193757
    },
    {
        "id": "2-C2MALB61VGDZA6",
        "name": "Figaro Coffee - Scout Magbanua [Available for LONG-DISTANCE DELIVERY]",
        "latitude": 14.634582,
        "longitude": 121.022962
    },
    {
        "id": "2-CZM2CKNFMCMXLN",
        "name": "Famous Belgian Waffles - Fishermall [Available for LONG-DISTANCE DELIVERY]",
        "latitude": 14.6333877,
        "longitude": 121.0193426
    },
    {
        "id": "2-C2MTRA5HCULBVT",
        "name": "Tiger Winx - Timog Avenue [Available for LONG-DISTANCE DELIVERY]",
        "latitude": 14.637276300079836,
        "longitude": 121.02831622251361
    },
    {
        "id": "2-C2JZGTW1FAUZPE",
        "name": "Teriyaki Boy - Scout Tuason [Available for LONG-DISTANCE DELIVERY]",
        "latitude": 14.629992399999999,
        "longitude": 121.0316308
    },
    {
        "id": "2-C2V2CKAANTKFR6",
        "name": "Kink Cakes Bakeshop - Timog Avenue [Available for LONG-DISTANCE DELIVERY]",
        "latitude": 14.63614255,
        "longitude": 121.0286835
    },
    {
        "id": "2-CZMGWEXAT8KTC2",
        "name": "Mad Crab PH - Sct. Castor [Available for LONG-DISTANCE DELIVERY]",
        "latitude": 14.629197,
        "longitude": 121.033691
    },
    {
        "id": "2-C4A2UAVTWA6ZA2",
        "name": "Chimmy - NBS Quezon Avenue [Available for LONG-DISTANCE DELIVERY]",
        "latitude": 14.6391387,
        "longitude": 121.0309008
    },
    {
        "id": "2-C33CA8CXVZKBSA",
        "name": "The Coffee Bean & Tea Leaf - Fishermall",
        "latitude": 14.63307277,
        "longitude": 121.0187044
    },
    {
        "id": "2-C3TBETKEEB2GSA",
        "name": "Mares - Victory Lacson",
        "latitude": 14.5980992,
        "longitude": 120.9841511
    },
    {
        "id": "2-C2NXDB2GJJ5JET",
        "name": "President Grand Palace Resturant - Binondo [Available for LONG-DISTANCE DELIVERY]",
        "latitude": 14.601248,
        "longitude": 120.976369
    },
    {
        "id": "2-CY2ATPJTE3XUCJ",
        "name": "Sisig Station - St Thomas Square",
        "latitude": 14.6057051,
        "longitude": 120.98865640000001
    },
    {
        "id": "2-CY4YGT62L6A3V2",
        "name": "Vista Hotel and Restaurant - Recto Street",
        "latitude": 14.6038780625,
        "longitude": 120.9812034
    },
    {
        "id": "2-C2AZE3UAG4E2ET",
        "name": "June-Nairah Halal Food Restaurant - Elizondo Street",
        "latitude": 14.5966277,
        "longitude": 120.9846892
    },
    {
        "id": "2-C2VKFFJ3L6XZBE",
        "name": "Joni's Pizza, Pasta and Grill - Ubelt Manila [Available for LONG-DISTANCE DELIVERY]",
        "latitude": 14.6044,
        "longitude": 120.99042
    },
    {
        "id": "2-C2V1DCCZFCDYKA",
        "name": "NikNoks Eatery - Gastambide St.",
        "latitude": 14.6014,
        "longitude": 120.991008
    },
    {
        "id": "2-CZMHV2B3C3AVNX",
        "name": "Chicky Restaurant - Binondo",
        "latitude": 14.60207581,
        "longitude": 120.9760154
    },
    {
        "id": "2-C2TYV2AJJBMUGX",
        "name": "Halina Hotel & Restaurant - Rizal Avenue",
        "latitude": 14.601594265287872,
        "longitude": 120.98144542327992
    },
    {
        "id": "2-C33JTVCGLNAAGJ",
        "name": "Glazed Unlimited Wings Manila - Gastambide [Available for LONG-DISTANCE DELIVERY]",
        "latitude": 14.60269656,
        "longitude": 120.9903477
    },
    {
        "id": "2-C33BT7EDNXWVNE",
        "name": "Sarrapsa - Sampaloc [Available for LONG-DISTANCE DELIVERY]",
        "latitude": 14.604471,
        "longitude": 120.990595
    },
    {
        "id": "2-C3VCLVDWJTUAAT",
        "name": "Fat Boy's Pizza Pasta - Youniversity Suites Laperal Manila",
        "latitude": 14.5997919,
        "longitude": 120.9905267
    },
    {
        "id": "2-C23DT76JFEXTCJ",
        "name": "The Cake Project - Ongpin Corner",
        "latitude": 14.59996229,
        "longitude": 120.97492218
    },
    {
        "id": "PHGFSTI000001pi",
        "name": "Five Spice Express - Ramada by Wyndham Manila Central",
        "latitude": 14.600041,
        "longitude": 120.975008
    },
    {
        "id": "2-C3X3L8CAVTXUT6",
        "name": "Urbanitea - P. Paredes St. [Available for LONG-DISTANCE DELIVERY]",
        "latitude": 14.60375919,
        "longitude": 120.9891425
    },
    {
        "id": "2-C3VZJJCGL7VHC2",
        "name": "Lumpianity - Central",
        "latitude": 14.5928529,
        "longitude": 120.9817688
    },
    {
        "id": "2-C32UMFVXDCLJLT",
        "name": "M&M Korean Kravings Atbp - Feu Morayta [Available for LONG-DISTANCE DELIVERY]",
        "latitude": 14.60366303,
        "longitude": 120.9853521
    },
    {
        "id": "2-C3L1A6VDTFVYLJ",
        "name": "Gogodimsum - St. Peter [Available for LONG-DISTANCE DELIVERY]",
        "latitude": 14.590324,
        "longitude": 120.982393
    },
    {
        "id": "2-C2CALEJZVEDJLX",
        "name": "Soy & Bean and Balai Pandesal - New Piac Bee",
        "latitude": 14.60167757,
        "longitude": 120.97780805714287
    },
    {
        "id": "2-C2AXL8KGA7XEUA",
        "name": "Ali and Pau Foodhouse - Quiapo",
        "latitude": 14.599928333333333,
        "longitude": 120.9882267
    },
    {
        "id": "2-CZKUG3XDRPXYWE",
        "name": "Fourteasix Milk Tea - Quiapo [Available for LONG-DISTANCE DELIVERY]",
        "latitude": 14.599221632829494,
        "longitude": 120.98996811557653
    },
    {
        "id": "2-C3X3L8CAWAEKKA",
        "name": "Yummie Pizza - P. Paredes Street [Available for LONG-DISTANCE DELIVERY]",
        "latitude": 14.60375919,
        "longitude": 120.9891425
    },
    {
        "id": "2-C2TACP3FJ4N2EA",
        "name": "The Brewed Buddies - SM Manila [Available for LONG-DISTANCE DELIVERY]",
        "latitude": 14.590258468592637,
        "longitude": 120.98297489814934
    },
    {
        "id": "2-C36XLBCFA7XYCX",
        "name": "Midnight Coffee - UST España",
        "latitude": 14.60773817,
        "longitude": 120.9873903
    },
    {
        "id": "2-C36GWGCYTPA1LJ",
        "name": "Mad Brews - Recto [Available for LONG-DISTANCE DELIVERY]",
        "latitude": 14.60198215,
        "longitude": 120.9878786
    },
    {
        "id": "2-C2JUGKVCPBLENN",
        "name": "Shancha Fresh Juice & Milktea - Benavidez Street [Available for LONG-DISTANCE DELIVERY]",
        "latitude": 14.60207581,
        "longitude": 120.9760154
    },
    {
        "id": "2-C2DJTPE1TKL1FE",
        "name": "Diversitea - Loyola Street",
        "latitude": 14.6042256,
        "longitude": 120.9895675
    },
    {
        "id": "2-CYNKJULVEVNDEA",
        "name": "Nitro 7 Coffee and Tea Bar - L.A Village",
        "latitude": 14.6010305,
        "longitude": 120.9903005125
    },
    {
        "id": "2-C2NDVUETREAZME",
        "name": "Uncle Bro's On-Line Pizza Hub - Campus Tambayan",
        "latitude": 14.604006,
        "longitude": 120.987582
    },
    {
        "id": "2-C3U1JPLAHA3WTT",
        "name": "CoCo Fresh Tea & Juice - Youniversity",
        "latitude": 14.6009454,
        "longitude": 120.9901214
    },
    {
        "id": "2-C22KFF6CGFL3G6",
        "name": "Burger Matsing  - Legarda [Available for LONG-DISTANCE DELIVERY]",
        "latitude": 14.601068,
        "longitude": 120.991649
    },
    {
        "id": "2-C36KHGCVGNKXAT",
        "name": "Katsunori Food Hall - Sta. Cruz [Available for LONG-DISTANCE DELIVERY]",
        "latitude": 14.606502,
        "longitude": 120.981819
    },
    {
        "id": "2-C23ZN7JJTCNECN",
        "name": "Joni's Grill - Delos Santos Street [Available for LONG-DISTANCE DELIVERY]",
        "latitude": 14.6033922,
        "longitude": 120.9907382
    },
    {
        "id": "2-C2NULBBYCGDKLE",
        "name": "Asiamix Diner - P. Noval Street [Available for LONG-DISTANCE DELIVERY]",
        "latitude": 14.6064256358,
        "longitude": 120.98962554147671
    },
    {
        "id": "2-C3LFV6NHVE6KV6",
        "name": "Tolit's Peri Peri - Morayta",
        "latitude": 14.60082754,
        "longitude": 120.9903528
    },
    {
        "id": "2-C4BAJNCTLE22EA",
        "name": "Kaimasu - University Belt [Available for LONG-DISTANCE DELIVERY]",
        "latitude": 14.60258279,
        "longitude": 120.99045269
    },
    {
        "id": "2-C333JGCWERLFT2",
        "name": "R.Lapid's Chicharon & Barbecue - SM Manila",
        "latitude": 14.5903242,
        "longitude": 120.982393
    },
    {
        "id": "2-C3B2LEVDGK4UT6",
        "name": "The Sushi Box - SM Manila",
        "latitude": 14.59032325,
        "longitude": 120.9825015
    },
    {
        "id": "PHGFSTI000001pq",
        "name": "J-Cobz Bistro - Loyola Street [Available for LONG-DISTANCE DELIVERY]",
        "latitude": 14.6027034,
        "longitude": 120.988592
    },
    {
        "id": "2-C2TYN8L2RY5HRN",
        "name": "Tio Paengs - Loyola [Available for LONG-DISTANCE DELIVERY]",
        "latitude": 14.6058478,
        "longitude": 120.9909107
    },
    {
        "id": "2-C3WFR2VFRLBDJA",
        "name": "The Hungry Pita - Quiapo",
        "latitude": 14.599832,
        "longitude": 120.984634
    },
    {
        "id": "2-CYUGHB4ATVDZT6",
        "name": "Infinitea - Laperal Apartment",
        "latitude": 14.600719400000001,
        "longitude": 120.9903795
    },
    {
        "id": "2-C2AEDE3ZR7JTCE",
        "name": "I Love Milktea - Concepcion Manila",
        "latitude": 14.5976714,
        "longitude": 120.9881989
    },
    {
        "id": "2-C2UWV6DZJ34ETT",
        "name": "Pares Kimchi - Mehan Garden",
        "latitude": 14.591493865386227,
        "longitude": 120.98114533527132
    },
    {
        "id": "2-C2LFNVJVTYLWLN",
        "name": "Takoishi - Binondo",
        "latitude": 14.598782,
        "longitude": 120.979038
    },
    {
        "id": "2-C2DWWBMVJ4EDEX",
        "name": "Pizza Haus Manila - Recto Avenue",
        "latitude": 14.60118366875,
        "longitude": 120.9896951
    },
    {
        "id": "PHGFSTI000003ch",
        "name": "What the Tea - Amaia Skies",
        "latitude": 14.6051638,
        "longitude": 120.98095842500001
    },
    {
        "id": "2-C2E2C3WCTPWJRE",
        "name": "Travel Burger Cafe - Sampaloc [Available for LONG-DISTANCE DELIVERY]",
        "latitude": 14.6079964,
        "longitude": 120.98613595
    },
    {
        "id": "2-C2X1VRDCHEVJVT",
        "name": "Chapes Keto Mompreneur - Manila [Available for LONG-DISTANCE DELIVERY]",
        "latitude": 14.5939029,
        "longitude": 120.9918032
    },
    {
        "id": "2-C4BEEECTE6D1UE",
        "name": "24/7 Food Hub - Mix and Match (Sta. Cruz)",
        "latitude": 14.606543,
        "longitude": 120.981725
    },
    {
        "id": "2-C4BFPADKEZKYUA",
        "name": "Dimsum Treats - Morayta Recto",
        "latitude": 14.60238754,
        "longitude": 120.9873186
    },
    {
        "id": "2-C2LYCNJHSATBSA",
        "name": "Buko Express - SM Manila [Available for LONG-DISTANCE DELIVERY]",
        "latitude": 14.59034416,
        "longitude": 120.9830165
    },
    {
        "id": "2-C2DBEKLJGPAXC6",
        "name": "Big Daddy's Cup - JT Centrale",
        "latitude": 14.6076433,
        "longitude": 120.9837719
    },
    {
        "id": "2-C2L1VXUYJAWDTE",
        "name": "Baon Fish - Manila",
        "latitude": 14.60653725,
        "longitude": 120.9884474
    },
    {
        "id": "2-C3LCLAVAL3JDGX",
        "name": "Max's Corner Bakery (Cakes, Breads & Pastries) - SM Manila [Available for LONG-DISTANCE DELIVERY]",
        "latitude": 14.59030917,
        "longitude": 120.9837155
    },
    {
        "id": "2-CZNTEBLEV6TAPE",
        "name": "Chicken Houz - Sampaloc [Available for LONG-DISTANCE DELIVERY]",
        "latitude": 14.6007516,
        "longitude": 120.9912471
    },
    {
        "id": "2-CZLHC2CVNE51GE",
        "name": "Polland Hopia - Escolta [Available for LONG-DISTANCE DELIVERY]",
        "latitude": 14.596918306778491,
        "longitude": 120.97725604555215
    },
    {
        "id": "2-C22TG2DKAJ5JJE",
        "name": "The Tapsishop - Sampaloc Manila",
        "latitude": 14.608459,
        "longitude": 120.986133
    },
    {
        "id": "2-C2EBR24TC76JDA",
        "name": "Sisig Ok - Recto Manila",
        "latitude": 14.60080873,
        "longitude": 120.9898487
    },
    {
        "id": "PHGFSTI000001d2",
        "name": "Sisig Sa-Wrap - Gastambide Street [Available for LONG-DISTANCE DELIVERY]",
        "latitude": 14.6008133,
        "longitude": 120.9911537
    },
    {
        "id": "2-C3W2E2CEFFKKLT",
        "name": "Cala Cafe - University Tower 4",
        "latitude": 14.6062605,
        "longitude": 120.9898449
    },
    {
        "id": "2-C4BVRACCVT6TFE",
        "name": "Papa Tapa - QQ Mall [Available for LONG-DISTANCE DELIVERY]",
        "latitude": 14.60221239,
        "longitude": 120.9836371
    },
    {
        "id": "2-C2UBVTU3GJXHKE",
        "name": "Goo Dee Taiwan Milk Tea - Sampaloc [Available for LONG-DISTANCE DELIVERY]",
        "latitude": 14.60183,
        "longitude": 120.99336
    },
    {
        "id": "2-CY2EGPUFTYKJVX",
        "name": "Macao Imperial Tea - Mendiola [Available for LONG-DISTANCE DELIVERY]",
        "latitude": 14.60122955,
        "longitude": 120.9897688
    },
    {
        "id": "2-C2NJVVAKTXU2TT",
        "name": "Tokyo Tokyo - Xentro Mall Legarda",
        "latitude": 14.6014757,
        "longitude": 120.9926647
    },
    {
        "id": "2-C2AYJX31LPBYBE",
        "name": "Boba Ka Tea - Loyola Street [Available for LONG-DISTANCE DELIVERY]",
        "latitude": 14.60522,
        "longitude": 120.990135
    },
    {
        "id": "2-C23ZN3NYEBJKL6",
        "name": "Angel's Sizzling - Delos Santos Street [Available for LONG-DISTANCE DELIVERY]",
        "latitude": 14.6033922,
        "longitude": 120.9907382
    },
    {
        "id": "2-C3JVETCFHCNHNJ",
        "name": "Sweet Tooth - Legarda",
        "latitude": 14.600857,
        "longitude": 120.991672
    },
    {
        "id": "2-C3V1FFVYE6ECRE",
        "name": "Choco Monkey - SM Manila",
        "latitude": 14.5903182,
        "longitude": 120.9831812
    },
    {
        "id": "2-C4BTR4BZN6AJTJ",
        "name": "T-Cup-Zone - Morayta [Available for LONG-DISTANCE DELIVERY]",
        "latitude": 14.60369979,
        "longitude": 120.9882075
    },
    {
        "id": "2-C2KFCP6KV25DTE",
        "name": "My Cup - Gonzalo Extension",
        "latitude": 14.600872,
        "longitude": 120.9823777
    },
    {
        "id": "2-C4BAJ3VJRLCTG6",
        "name": "THE Hungry Egg - San Anton Street. Manila [Available for LONG-DISTANCE DELIVERY]",
        "latitude": 14.60283278,
        "longitude": 120.9905063
    },
    {
        "id": "2-C2B1VKEFVF6HRT",
        "name": "Belden Milktea - Tolentino Street [Available for LONG-DISTANCE DELIVERY]",
        "latitude": 14.607526,
        "longitude": 120.987775
    },
    {
        "id": "2-C2VYAKUVSFLANX",
        "name": "Chang Thai Tea - Sampaloc [Available for LONG-DISTANCE DELIVERY]",
        "latitude": 14.6075075,
        "longitude": 120.9866534
    },
    {
        "id": "2-CZJ2MBCEDBCWHE",
        "name": "Kalsada Burger - UST [Available for LONG-DISTANCE DELIVERY]",
        "latitude": 14.6076718,
        "longitude": 120.9884945
    },
    {
        "id": "2-C3WKE3VTRT4ZTE",
        "name": "Vianney's - University Tower",
        "latitude": 14.606098,
        "longitude": 120.989886
    },
    {
        "id": "2-CZLHT26DWFWEWE",
        "name": "Perico's Grill - Mendiola",
        "latitude": 14.598426525,
        "longitude": 120.99358269999999
    },
    {
        "id": "2-C3DCR6JEAT5HTE",
        "name": "G&G Fried Chicken - Palanca",
        "latitude": 14.5981983,
        "longitude": 120.9819969
    },
    {
        "id": "2-C2XWJAXTEF3GA2",
        "name": "Mister Donut - Lacson Underpass",
        "latitude": 14.5981151,
        "longitude": 120.9841068
    },
    {
        "id": "2-C3UFJEAHN35FT6",
        "name": "K-Egg - Sampaloc Manila",
        "latitude": 14.60231279,
        "longitude": 120.9910496
    },
    {
        "id": "2-C2EARBA2JY2JDE",
        "name": "Monster Wings - SM Manila [Available for LONG-DISTANCE DELIVERY]",
        "latitude": 14.590311915609103,
        "longitude": 120.98277362854529
    },
    {
        "id": "2-CY2EFBCDTNC1L2",
        "name": "Boba Milk Tea By Kowloon House - Legarda [Available for LONG-DISTANCE DELIVERY]",
        "latitude": 14.5978789,
        "longitude": 120.98967024
    },
    {
        "id": "2-C2L3PGEKJ3XFBA",
        "name": "J&G Milktea Avenue - Trinidad Street",
        "latitude": 14.601878853098555,
        "longitude": 120.98229999997614
    },
    {
        "id": "2-C2A3L26AEGK2VA",
        "name": "Coffee Plus - Metro Suites Building [Available for LONG-DISTANCE DELIVERY]",
        "latitude": 14.6082067,
        "longitude": 120.98763833333332
    },
    {
        "id": "2-C2NXGFKDPEEACE",
        "name": "Happy Thirstday - Sampaloc [Available for LONG-DISTANCE DELIVERY]",
        "latitude": 14.607373,
        "longitude": 120.987819
    },
    {
        "id": "2-C2VTKEBWNRCXEJ",
        "name": "AJ Takoyaki Express - Sampaloc",
        "latitude": 14.601453603170697,
        "longitude": 120.99095362875124
    },
    {
        "id": "2-C2CAEE63HBVVTT",
        "name": "Tea Manila - Sampaloc",
        "latitude": 14.60158156,
        "longitude": 120.9914059
    },
    {
        "id": "2-C3AAR2CCLFKKHE",
        "name": "Tin & Kyle Silog Silogan - Gastambide St [Available for LONG-DISTANCE DELIVERY]",
        "latitude": 14.602665,
        "longitude": 120.990423
    },
    {
        "id": "2-C2TKTEJKJYKYC6",
        "name": "Nuli Milktea Studio - Morayta [Available for LONG-DISTANCE DELIVERY]",
        "latitude": 14.604766,
        "longitude": 120.987763
    }
]